label,latitude,longitude,demandKg,priority
Connaught Place,28.6315,77.2167,40,3
India Gate,28.6129,77.2295,25,2
Karol Bagh,28.6519,77.1909,60,1
Lajpat Nagar,28.5677,77.2433,35,2
Saket,28.5245,77.2066,50,1
Dwarka Sector 21,28.5522,77.0588,30,3
Rohini,28.7495,77.0565,45,1
Vasant Kunj,28.5200,77.1591,20,2
